{"features":[{"geometry":{"coordinates":[-0.657736,44.793171],"type":"Point"},"properties":{"code":"PESGAR","description":"","id":"7437","name":"Gare Pessac Alouette","parent_station":"PESGAR","wheelchair_boarding":"available"},"type":"Feature"},{"geometry":{"coordinates":[-0.578216,44.825031],"type":"Point"},"properties":{"code":"BERGA","description":"","id":"3749","name":"Bergonié","parent_station":"BERGO","wheelchair_boarding":"available"},"type":"Feature"},{"geometry":{"coordinates":[-0.520171,44.872806],"type":"Point"},"properties":{"code":"GRAVR","description":"","id":"3688","name":"Gravières","parent_station":"GRAVI","wheelchair_boarding":"available"},"type":"Feature"},{"geometry":{"coordinates":[-0.578464,44.841056],"type":"Point"},"properties":{"code":"GAMBA","description":"","id":"3759","name":"Gambetta - madd","parent_station":"GAMBT","wheelchair_boarding":"available"},"type":"Feature"},{"geometry":{"coordinates":[-0.576379,44.837658],"type":"Point"},"properties":{"code":"HDVB","description":"","id":"HDVB","name":"Hôtel de Ville","wheelchair_boarding":"unknown"},"type":"Feature"},{"geometry":{"coordinates":[-0.543861,44.877847],"type":"Point"},"properties":{"code":"CLAVE","description":"","id":"CLAVE","name":"Claveau","wheelchair_boarding":"unknown"},"type":"Feature"},{"geometry":{"coordinates":[-0.64662,44.793019],"type":"Point"},"properties":{"code":"CHATA","description":"","id":"CHATA","name":"Chataigneraie","wheelchair_boarding":"unknown"},"type":"Feature"},{"geometry":{"coordinates":[-0.623573,44.916796],"type":"Point"},"properties":{"code":"GABLQ1","description":"","id":"7719","name":"Gare de Blanquefort","parent_station":"GABLAN","wheelchair_boarding":"available"},"type":"Feature"},{"geometry":{"coordinates":[-0.547333,44.871018],"type":"Point"},"properties":{"code":"NYORK","description":"","id":"NYORK","name":"New York","wheelchair_boarding":"unknown"},"type":"Feature"},{"geometry":{"coordinates":[-0.556845,44.825917],"type":"Point"},"properties":{"code":"SJEAR","description":"","id":"5433","name":"Gare Saint-Jean","parent_station":"SJEAN","wheelchair_boarding":"available"},"type":"Feature"},{"geometry":{"coordinates":[-0.59268,44.807241],"type":"Point"},"properties":{"code":"PEXOR","description":"","id":"3742","name":"Peixotto","parent_station":"PEIXOT","wheelchair_boarding":"available"},"type":"Feature"},{"geometry":{"coordinates":[-0.551555,44.807953],"type":"Point"},"properties":{"code":"MUSARR","description":"","id":"7393","name":"Stade Musard","parent_station":"MUSARD","wheelchair_boarding":"available"},"type":"Feature"},{"geometry":{"coordinates":[-0.522691,44.868536],"type":"Point"},"properties":{"code":"IRIS","description":"","id":"IRIS","name":"Iris","wheelchair_boarding":"unknown"},"type":"Feature"},{"geometry":{"coordinates":[-0.565799,44.89334],"type":"Point"},"properties":{"code":"TEXPO1","description":"","id":"7327","name":"Parc des Expositions","parent_station":"TEXPO","wheelchair_boarding":"unknown"},"type":"Feature"},{"geometry":{"coordinates":[-0.508928,44.850704],"type":"Point"},"properties":{"code":"MARER","description":"","id":"5216","name":"La Marègue","parent_station":"MAREG","wheelchair_boarding":"available"},"type":"Feature"},{"geometry":{"coordinates":[-0.651695,44.789216],"type":"Point"},"properties":{"code":"CMETIR","description":"","id":"7433","name":"Cap Métiers","parent_station":"CMETIE","wheelchair_boarding":"available"},"type":"Feature"},{"geometry":{"coordinates":[-0.550874,44.815307],"type":"Point"},"properties":{"code":"NEUVE","description":"","id":"NEUVE","name":"Terres Neuves","wheelchair_boarding":"unknown"},"type":"Feature"},{"geometry":{"coordinates":[-0.609665,44.800272],"type":"Point"},"properties":{"code":"DOYER","description":"","id":"3734","name":"Doyen Brus","parent_station":"DOYEN","wheelchair_boarding":"available"},"type":"Feature"},{"geometry":{"coordinates":[-0.575271,44.842033],"type":"Point"},"properties":{"code":"THEAA","description":"","id":"3761","name":"Grand Théâtre","parent_station":"THEAT","wheelchair_boarding":"available"},"type":"Feature"},{"geometry":{"coordinates":[-0.58151,44.836276],"type":"Point"},"properties":{"code":"PJUST","description":"","id":"PJUST","name":"Palais de Justice","wheelchair_boarding":"unknown"},"type":"Feature"},{"geometry":{"coordinates":[-0.574486,44.854672],"type":"Point"},"properties":{"code":"GODAR","description":"","id":"GODAR","name":"Camille Godard","wheelchair_boarding":"unknown"},"type":"Feature"},{"geometry":{"coordinates":[-0.65593,44.85003],"type":"Point"},"properties":{"code":"FRROBI","description":"","id":"FRROBI","name":"Frères Robinson","wheelchair_boarding":"unknown"},"type":"Feature"},{"geometry":{"coordinates":[-0.62566,44.826671],"type":"Point"},"properties":{"code":"ARLAA","description":"","id":"5232","name":"Fontaine d'Arlac","parent_station":"ARLAC","wheelchair_boarding":"available"},"type":"Feature"},{"geometry":{"coordinates":[-0.575297,44.862329],"type":"Point"},"properties":{"code":"GPARA","description":"","id":"5402","name":"Grand Parc","parent_station":"GPARC","wheelchair_boarding":"available"},"type":"Feature"},{"geometry":{"coordinates":[-0.641258,44.881382],"type":"Point"},"properties":{"code":"PICOT","description":"","id":"PICOT","name":"Picot","wheelchair_boarding":"unknown"},"type":"Feature"},{"geometry":{"coordinates":[-0.598007,44.806014],"type":"Point"},"properties":{"code":"BETHR","description":"","id":"3740","name":"Béthanie","parent_station":"BETHA","wheelchair_boarding":"available"},"type":"Feature"},{"geometry":{"coordinates":[-0.614267,44.827151],"type":"Point"},"properties":{"code":"FMITA","description":"","id":"5228","name":"François Mitterrand","parent_station":"FRMIT","wheelchair_boarding":"available"},"type":"Feature"},{"geometry":{"coordinates":[-0.646549,44.793008],"type":"Point"},"properties":{"code":"CHATAA","description":"","id":"7432","name":"Chataigneraie","parent_station":"CHATA","wheelchair_boarding":"available"},"type":"Feature"},{"geometry":{"coordinates":[-0.573305,44.837622],"type":"Point"},"properties":{"code":"CATHE","description":"","id":"CATHE","name":"Sainte Catherine","wheelchair_boarding":"unknown"},"type":"Feature"},{"geometry":{"coordinates":[-0.62562,44.826645],"type":"Point"},"properties":{"code":"ARLAC","description":"","id":"ARLAC","name":"Fontaine d'Arlac","wheelchair_boarding":"unknown"},"type":"Feature"},{"geometry":{"coordinates":[-0.602735,44.879246],"type":"Point"},"properties":{"code":"BRUSUD","description":"","id":"BRUSUD","name":"Ausone","wheelchair_boarding":"unknown"},"type":"Feature"},{"geometry":{"coordinates":[-0.583136,44.820771],"type":"Point"},"properties":{"code":"BGENA","description":"","id":"3747","name":"Barrière Saint-Genès","parent_station":"BGENE","wheelchair_boarding":"available"},"type":"Feature"},{"geometry":{"coordinates":[-0.647487,44.83495],"type":"Point"},"properties":{"code":"LYCER","description":"","id":"5241","name":"Lycées de Mérignac","parent_station":"LYCEE","wheelchair_boarding":"available"},"type":"Feature"},{"geometry":{"coordinates":[-0.575326,44.835543],"type":"Point"},"properties":{"code":"MUSEA","description":"","id":"3755","name":"Musée d'Aquitaine","parent_station":"MUSEE","wheelchair_boarding":"available"},"type":"Feature"},{"geometry":{"coordinates":[-0.551533,44.808017],"type":"Point"},"properties":{"code":"MUSARA","description":"","id":"7394","name":"Stade Musard","parent_station":"MUSARD","wheelchair_boarding":"available"},"type":"Feature"},{"geometry":{"coordinates":[-0.575297,44.862329],"type":"Point"},"properties":{"code":"GPARC","description":"","id":"GPARC","name":"Grand Parc","wheelchair_boarding":"unknown"},"type":"Feature"},{"geometry":{"coordinates":[-0.663104,44.798618],"type":"Point"},"properties":{"code":"TALOU","description":"","id":"7440","name":"France Alouette","parent_station":"TALOU","wheelchair_boarding":"available"},"type":"Feature"},{"geometry":{"coordinates":[-0.551262,44.811131],"type":"Point"},"properties":{"code":"BROSE","description":"","id":"BROSE","name":"La Belle Rose","wheelchair_boarding":"unknown"},"type":"Feature"},{"geometry":{"coordinates":[-0.517867,44.879107],"type":"Point"},"properties":{"code":"LAURI","description":"","id":"3684","name":"Lauriers","parent_station":"LAURI","wheelchair_boarding":"available"},"type":"Feature"},{"geometry":{"coordinates":[-0.655406,44.787701],"type":"Point"},"properties":{"code":"HTLEV","description":"","id":"HTLEV","name":"Hôpital Haut-Lévêque","wheelchair_boarding":"unknown"},"type":"Feature"},{"geometry":{"coordinates":[-0.609817,44.887551],"type":"Point"},"properties":{"code":"BRUGAR","description":"","id":"BRUGAR","name":"Gare de Bruges","wheelchair_boarding":"unknown"},"type":"Feature"},{"geometry":{"coordinates":[-0.565815,44.893304],"type":"Point"},"properties":{"code":"TEXPO","description":"","id":"TEXPO","name":"Parc des Expositions","wheelchair_boarding":"unknown"},"type":"Feature"},{"geometry":{"coordinates":[-0.559594,44.79397],"type":"Point"},"properties":{"code":"PMUSSA","description":"","id":"7400","name":"Parc de Mussonville","parent_station":"PMUSS","wheelchair_boarding":"available"},"type":"Feature"},{"geometry":{"coordinates":[-0.548655,44.866663],"type":"Point"},"properties":{"code":"ACHAA","description":"","id":"5528","name":"rue Achard","parent_station":"ACHAR","wheelchair_boarding":"available"},"type":"Feature"},{"geometry":{"coordinates":[-0.518153,44.854963],"type":"Point"},"properties":{"code":"MORLE","description":"","id":"3693","name":"La Morlette","parent_station":"MORLE","wheelchair_boarding":"available"},"type":"Feature"},{"geometry":{"coordinates":[-0.559625,44.793955],"type":"Point"},"properties":{"code":"PMUSS","description":"","id":"PMUSS","name":"Parc de Mussonville","wheelchair_boarding":"unknown"},"type":"Feature"},{"geometry":{"coordinates":[-0.508899,44.850741],"type":"Point"},"properties":{"code":"MAREG","description":"","id":"MAREG","name":"Cenon Marègue","wheelchair_boarding":"unknown"},"type":"Feature"},{"geometry":{"coordinates":[-0.634114,44.794093],"type":"Point"},"properties":{"code":"BOUGN","description":"","id":"3724","name":"Bougnard","parent_station":"BOUGN","wheelchair_boarding":"available"},"type":"Feature"},{"geometry":{"coordinates":[-0.589248,44.83745],"type":"Point"},"properties":{"code":"BRUNO","description":"","id":"BRUNO","name":"St Bruno - Hôtel de Région","wheelchair_boarding":"unknown"},"type":"Feature"},{"geometry":{"coordinates":[-0.573882,44.844493],"type":"Point"},"properties":{"code":"QU2B","description":"","id":"3764","name":"Quinconces","parent_station":"QUIN_B","wheelchair_boarding":"available"},"type":"Feature"},{"geometry":{"coordinates":[-0.617365,44.796786],"type":"Point"},"properties":{"code":"MONTA1","description":"","id":"3729","name":"Montaigne - Montesquieu","parent_station":"MONTA","wheelchair_boarding":"available"},"type":"Feature"},{"geometry":{"coordinates":[-0.668319,44.858517],"type":"Point"},"properties":{"code":"TMAGUD","description":"","id":"7337","name":"Le Haillan Rostand","parent_station":"TMAGUD","wheelchair_boarding":"available"},"type":"Feature"},{"geometry":{"coordinates":[-0.602348,44.805999],"type":"Point"},"properties":{"code":"ARTMR","description":"","id":"3738","name":"Arts & Métiers","parent_station":"ARTME","wheelchair_boarding":"available"},"type":"Feature"},{"geometry":{"coordinates":[-0.564905,44.774341],"type":"Point"},"properties":{"code":"LPYREN","description":"","id":"7723","name":"Villenave Pyrénées","parent_station":"LPYREN","wheelchair_boarding":"available"},"type":"Feature"},{"geometry":{"coordinates":[-0.639831,44.830181],"type":"Point"},"properties":{"code":"MENDA","description":"","id":"5236","name":"Pierre Mendès France","parent_station":"MENDE","wheelchair_boarding":"available"},"type":"Feature"},{"geometry":{"coordinates":[-0.567657,44.852787],"type":"Point"},"properties":{"code":"CHARR","description":"","id":"5254","name":"Chartrons","parent_station":"CHART","wheelchair_boarding":"available"},"type":"Feature"},{"geometry":{"coordinates":[-0.64669,44.79303],"type":"Point"},"properties":{"code":"CHATAR","description":"","id":"7431","name":"Chataigneraie","parent_station":"CHATA","wheelchair_boarding":"available"},"type":"Feature"},{"geometry":{"coordinates":[-0.519344,44.875987],"type":"Point"},"properties":{"code":"BFLEA","description":"","id":"3685","name":"Bois Fleuri","parent_station":"BFLEU","wheelchair_boarding":"available"},"type":"Feature"},{"geometry":{"coordinates":[-0.600871,44.861358],"type":"Point"},"properties":{"code":"CALYPA","description":"","id":"8330","name":"Calypso","parent_station":"CALYPS","wheelchair_boarding":"available"},"type":"Feature"},{"geometry":{"coordinates":[-0.593093,44.833094],"type":"Point"},"properties":{"code":"GAVIR","description":"","id":"4584","name":"Gaviniès","parent_station":"GAVIN","wheelchair_boarding":"available"},"type":"Feature"},{"geometry":{"coordinates":[-0.633996,44.830238],"type":"Point"},"properties":{"code":"VIGNA","description":"","id":"5234","name":"Alfred de Vigny","parent_station":"VIGNY","wheelchair_boarding":"available"},"type":"Feature"},{"geometry":{"coordinates":[-0.548726,44.866589],"type":"Point"},"properties":{"code":"ACHAR","description":"","id":"5529","name":"rue Achard","parent_station":"ACHAR","wheelchair_boarding":"available"},"type":"Feature"},{"geometry":{"coordinates":[-0.570843,44.878965],"type":"Point"},"properties":{"code":"BERLAR","description":"","id":"7132","name":"Berges du Lac","parent_station":"BERLAC","wheelchair_boarding":"available"},"type":"Feature"},{"geometry":{"coordinates":[-0.614253,44.871395],"type":"Point"},"properties":{"code":"GERMAR","description":"","id":"8343","name":"Sainte Germaine","parent_station":"GERMA","wheelchair_boarding":"available"},"type":"Feature"},{"geometry":{"coordinates":[-0.592635,44.807242],"type":"Point"},"properties":{"code":"PEIXOT","description":"","id":"PEIXOT","name":"Peixotto","wheelchair_boarding":"unknown"},"type":"Feature"},{"geometry":{"coordinates":[-0.575297,44.842051],"type":"Point"},"properties":{"code":"THEAT","description":"","id":"THEAT","name":"Grand Théâtre","wheelchair_boarding":"unknown"},"type":"Feature"},{"geometry":{"coordinates":[-0.552044,44.802873],"type":"Point"},"properties":{"code":"CALAISR","description":"","id":"7395","name":"Calais - Centujean","parent_station":"CALAIS","wheelchair_boarding":"available"},"type":"Feature"},{"geometry":{"coordinates":[-0.534155,44.855968],"type":"Point"},"properties":{"code":"CENOG","description":"","id":"CENOG","name":"Cenon Gare","wheelchair_boarding":"unknown"},"type":"Feature"},{"geometry":{"coordinates":[-0.647457,44.834974],"type":"Point"},"properties":{"code":"LYCEE","description":"","id":"LYCEE","name":"Lycées de Mérignac","wheelchair_boarding":"unknown"},"type":"Feature"},{"geometry":{"coordinates":[-0.574102,44.851931],"type":"Point"},"properties":{"code":"PDOUM","description":"","id":"PDOUM","name":"Paul Doumer","wheelchair_boarding":"unknown"},"type":"Feature"},{"geometry":{"coordinates":[-0.576398,44.837644],"type":"Point"},"properties":{"code":"HDVBR","description":"","id":"3758","name":"Hôtel de Ville","parent_station":"HDVB","wheelchair_boarding":"available"},"type":"Feature"},{"geometry":{"coordinates":[-0.519699,44.862241],"type":"Point"},"properties":{"code":"PALMA","description":"","id":"3696","name":"Palmer","parent_station":"PALMER","wheelchair_boarding":"available"},"type":"Feature"},{"geometry":{"coordinates":[-0.573996,44.828975],"type":"Point"},"properties":{"code":"NICOL","description":"","id":"NICOL","name":"Saint-Nicolas","wheelchair_boarding":"unknown"},"type":"Feature"},{"geometry":{"coordinates":[-0.552161,44.822543],"type":"Point"},"properties":{"code":"BELCI","description":"","id":"BELCI","name":"Belcier","wheelchair_boarding":"unknown"},"type":"Feature"},{"geometry":{"coordinates":[-0.636754,44.879655],"type":"Point"},"properties":{"code":"SVEIL","description":"","id":"SVEIL","name":"Simone Veil","wheelchair_boarding":"unknown"},"type":"Feature"},{"geometry":{"coordinates":[-0.659796,44.856861],"type":"Point"},"properties":{"code":"LESPIR","description":"","id":"7336","name":"Les Pins","parent_station":"LESPIN","wheelchair_boarding":"available"},"type":"Feature"},{"geometry":{"coordinates":[-0.657753,44.793139],"type":"Point"},"properties":{"code":"PESGAR","description":"","id":"PESGAR","name":"Gare Pessac Alouette","wheelchair_boarding":"unknown"},"type":"Feature"},{"geometry":{"coordinates":[-0.552185,44.822533],"type":"Point"},"properties":{"code":"BELCR","description":"","id":"5435","name":"Belcier","parent_station":"BELCI","wheelchair_boarding":"available"},"type":"Feature"},{"geometry":{"coordinates":[-0.522729,44.868525],"type":"Point"},"properties":{"code":"IRIA","description":"","id":"3689","name":"Iris","parent_station":"IRIS","wheelchair_boarding":"available"},"type":"Feature"},{"geometry":{"coordinates":[-0.566392,44.837164],"type":"Point"},"properties":{"code":"BRGC","description":"","id":"BRGC","name":"Porte de Bourgogne","wheelchair_boarding":"unknown"},"type":"Feature"},{"geometry":{"coordinates":[-0.56629,44.837248],"type":"Point"},"properties":{"code":"BRGAA","description":"","id":"3712","name":"Porte de Bourgogne","parent_station":"BRGA","wheelchair_boarding":"available"},"type":"Feature"},{"geometry":{"coordinates":[-0.582567,44.821574],"type":"Point"},"properties":{"code":"BGENR","description":"","id":"3748","name":"Barrière Saint-Genès","parent_station":"BGENE","wheelchair_boarding":"available"},"type":"Feature"},{"geometry":{"coordinates":[-0.62156,44.796279],"type":"Point"},"properties":{"code":"UNITE","description":"","id":"UNITE","name":"Unitec","wheelchair_boarding":"unknown"},"type":"Feature"},{"geometry":{"coordinates":[-0.585957,44.850079],"type":"Point"},"properties":{"code":"SEGUEA","description":"","id":"8324","name":"Croix de seguey","parent_station":"SEGUEY","wheelchair_boarding":"available"},"type":"Feature"},{"geometry":{"coordinates":[-0.513177,44.854111],"type":"Point"},"properties":{"code":"JZAY","description":"","id":"JZAY","name":"Jean Zay","wheelchair_boarding":"unknown"},"type":"Feature"},{"geometry":{"coordinates":[-0.575348,44.835479],"type":"Point"},"properties":{"code":"MUSER","description":"","id":"3756","name":"Musée d'Aquitaine","parent_station":"MUSEE","wheelchair_boarding":"available"},"type":"Feature"},{"geometry":{"coordinates":[-0.621522,44.79628],"type":"Point"},"properties":{"code":"UNITA","description":"","id":"3727","name":"Unitec","parent_station":"UNITE","wheelchair_boarding":"available"},"type":"Feature"},{"geometry":{"coordinates":[-0.541535,44.885582],"type":"Point"},"properties":{"code":"GARON","description":"","id":"7172","name":"Berges de la Garonne","parent_station":"GARON","wheelchair_boarding":"available"},"type":"Feature"},{"geometry":{"coordinates":[-0.633961,44.794071],"type":"Point"},"properties":{"code":"BOUGA","description":"","id":"5244","name":"Bougnard","parent_station":"BOUGN","wheelchair_boarding":"available"},"type":"Feature"},{"geometry":{"coordinates":[-0.570343,44.883064],"type":"Point"},"properties":{"code":"40JOUR","description":"","id":"7324","name":"Quarante Journaux","parent_station":"40JOU","wheelchair_boarding":"available"},"type":"Feature"},{"geometry":{"coordinates":[-0.567238,44.889257],"type":"Point"},"properties":{"code":"PCONGR","description":"","id":"7326","name":"Palais des Congrès","parent_station":"PCONGR","wheelchair_boarding":"available"},"type":"Feature"},{"geometry":{"coordinates":[-0.517917,44.879105],"type":"Point"},"properties":{"code":"LAURA","description":"","id":"5488","name":"Lauriers","parent_station":"LAURI","wheelchair_boarding":"available"},"type":"Feature"},{"geometry":{"coordinates":[-0.655894,44.850058],"type":"Point"},"properties":{"code":"FRROBA","description":"","id":"7333","name":"Frères Robinson","parent_station":"FRROBI","wheelchair_boarding":"available"},"type":"Feature"},{"geometry":{"coordinates":[-0.598006,44.806],"type":"Point"},"properties":{"code":"BETHA","description":"","id":"BETHA","name":"Béthanie","wheelchair_boarding":"unknown"},"type":"Feature"},{"geometry":{"coordinates":[-0.556826,44.825917],"type":"Point"},"properties":{"code":"SJEAN","description":"","id":"SJEAN","name":"Gare Saint Jean","wheelchair_boarding":"unknown"},"type":"Feature"},{"geometry":{"coordinates":[-0.644864,44.832585],"type":"Point"},"properties":{"code":"4CHER","description":"","id":"5239","name":"Quatre Chemins","parent_station":"4CHEM","wheelchair_boarding":"available"},"type":"Feature"},{"geometry":{"coordinates":[-0.550782,44.845803],"type":"Point"},"properties":{"code":"TBENR","description":"","id":"3707","name":"Thiers-Benauge","parent_station":"TBENE","wheelchair_boarding":"available"},"type":"Feature"},{"geometry":{"coordinates":[-0.519272,44.876052],"type":"Point"},"properties":{"code":"BFLER","description":"","id":"3686","name":"Bois Fleuri","parent_station":"BFLEU","wheelchair_boarding":"available"},"type":"Feature"},{"geometry":{"coordinates":[-0.566228,44.786628],"type":"Point"},"properties":{"code":"HAVEL","description":"","id":"HAVEL","name":"Lycée Vaclav Havel","wheelchair_boarding":"unknown"},"type":"Feature"},{"geometry":{"coordinates":[-0.573332,44.837635],"type":"Point"},"properties":{"code":"CATHA","description":"","id":"3716","name":"Sainte Catherine","parent_station":"CATHE","wheelchair_boarding":"available"},"type":"Feature"},{"geometry":{"coordinates":[-0.60677,44.803494],"type":"Point"},"properties":{"code":"BORDR","description":"","id":"3736","name":"François Bordes","parent_station":"BORDE","wheelchair_boarding":"available"},"type":"Feature"},{"geometry":{"coordinates":[-0.575324,44.842068],"type":"Point"},"properties":{"code":"THEAR","description":"","id":"3762","name":"Grand Théâtre","parent_station":"THEAT","wheelchair_boarding":"available"},"type":"Feature"},{"geometry":{"coordinates":[-0.573792,44.844469],"type":"Point"},"properties":{"code":"QU1B","description":"","id":"3763","name":"Quinconces","parent_station":"QUIN_B","wheelchair_boarding":"available"},"type":"Feature"},{"geometry":{"coordinates":[-0.575343,44.862264],"type":"Point"},"properties":{"code":"GPARR","description":"","id":"5403","name":"Grand Parc","parent_station":"GPARC","wheelchair_boarding":"available"},"type":"Feature"},{"geometry":{"coordinates":[-0.600548,44.861062],"type":"Point"},"properties":{"code":"CALYPR","description":"","id":"8329","name":"Calypso","parent_station":"CALYPS","wheelchair_boarding":"available"},"type":"Feature"},{"geometry":{"coordinates":[-0.605264,44.865631],"type":"Point"},"properties":{"code":"MBOUSA","description":"","id":"8332","name":"Mairie du Bouscat","parent_station":"MBOUS","wheelchair_boarding":"available"},"type":"Feature"},{"geometry":{"coordinates":[-0.558544,44.829062],"type":"Point"},"properties":{"code":"TAUZI","description":"","id":"TAUZI","name":"Tauzia","wheelchair_boarding":"unknown"},"type":"Feature"},{"geometry":{"coordinates":[-0.651319,44.844197],"type":"Point"},"properties":{"code":"GALAN2","description":"","id":"7330","name":"Pin Galant","parent_station":"PGALA","wheelchair_boarding":"available"},"type":"Feature"},{"geometry":{"coordinates":[-0.647427,44.834997],"type":"Point"},"properties":{"code":"LYCEA","description":"","id":"5240","name":"Lycées de Mérignac","parent_station":"LYCEE","wheelchair_boarding":"available"},"type":"Feature"},{"geometry":{"coordinates":[-0.553247,44.86073],"type":"Point"},"properties":{"code":"FLO12B","description":"","id":"FLO12B","name":"La Cité du Vin","wheelchair_boarding":"unknown"},"type":"Feature"},{"geometry":{"coordinates":[-0.651652,44.789235],"type":"Point"},"properties":{"code":"CMETIE","description":"","id":"CMETIE","name":"Cap Métiers","wheelchair_boarding":"unknown"},"type":"Feature"},{"geometry":{"coordinates":[-0.619127,44.907459],"type":"Point"},"properties":{"code":"CBLANA","description":"","id":"7717","name":"Frankton","parent_station":"CBLANQ","wheelchair_boarding":"available"},"type":"Feature"},{"geometry":{"coordinates":[-0.641032,44.881308],"type":"Point"},"properties":{"code":"PICOTR","description":"","id":"8353","name":"Picot","parent_station":"PICOT","wheelchair_boarding":"available"},"type":"Feature"},{"geometry":{"coordinates":[-0.590962,44.811956],"type":"Point"},"properties":{"code":"FORUM","description":"","id":"FORUM","name":"Talence Centre-Forum","wheelchair_boarding":"unknown"},"type":"Feature"},{"geometry":{"coordinates":[-0.552136,44.822553],"type":"Point"},"properties":{"code":"BELCA","description":"","id":"5434","name":"Belcier","parent_station":"BELCI","wheelchair_boarding":"available"},"type":"Feature"},{"geometry":{"coordinates":[-0.576361,44.837672],"type":"Point"},"properties":{"code":"HDVBA","description":"","id":"3757","name":"Hôtel de Ville","parent_station":"HDVB","wheelchair_boarding":"available"},"type":"Feature"},{"geometry":{"coordinates":[-0.602284,44.805983],"type":"Point"},"properties":{"code":"ARTMA","description":"","id":"3737","name":"Arts & Métiers","parent_station":"ARTME","wheelchair_boarding":"available"},"type":"Feature"},{"geometry":{"coordinates":[-0.545651,44.874483],"type":"Point"},"properties":{"code":"BRANA","description":"","id":"5532","name":"Brandenburg","parent_station":"BRANRG","wheelchair_boarding":"available"},"type":"Feature"},{"geometry":{"coordinates":[-0.550865,44.815276],"type":"Point"},"properties":{"code":"NEUVE","description":"","id":"5438","name":"Terres Neuves","parent_station":"NEUVE","wheelchair_boarding":"available"},"type":"Feature"},{"geometry":{"coordinates":[-0.621686,44.876389],"type":"Point"},"properties":{"code":"TREULO","description":"","id":"TREULO","name":"Champs de courses - Treulon","wheelchair_boarding":"unknown"},"type":"Feature"},{"geometry":{"coordinates":[-0.58885,44.83488],"type":"Point"},"properties":{"code":"POLIA","description":"","id":"4581","name":"Hôtel de Police","parent_station":"POLIC","wheelchair_boarding":"available"},"type":"Feature"},{"geometry":{"coordinates":[-0.639866,44.830135],"type":"Point"},"properties":{"code":"MENDR","description":"","id":"5237","name":"Pierre Mendès France","parent_station":"MENDE","wheelchair_boarding":"available"},"type":"Feature"},{"geometry":{"coordinates":[-0.573059,44.831154],"type":"Point"},"properties":{"code":"VICTR","description":"","id":"3753","name":"Victoire","parent_station":"VICTO","wheelchair_boarding":"available"},"type":"Feature"},{"geometry":{"coordinates":[-0.550826,44.845793],"type":"Point"},"properties":{"code":"TBENE","description":"","id":"TBENE","name":"Thiers-Benauge","wheelchair_boarding":"unknown"},"type":"Feature"},{"geometry":{"coordinates":[-0.634776,44.800321],"type":"Point"},"properties":{"code":"MONTES","description":"","id":"MONTES","name":"Camponac Médiathèque","wheelchair_boarding":"unknown"},"type":"Feature"},{"geometry":{"coordinates":[-0.570808,44.879016],"type":"Point"},"properties":{"code":"BERLAC","description":"","id":"BERLAC","name":"Berges du Lac","wheelchair_boarding":"unknown"},"type":"Feature"},{"geometry":{"coordinates":[-0.573827,44.844027],"type":"Point"},"properties":{"code":"QU1C","description":"","id":"3776","name":"Quinconces","parent_station":"QUIN_B","wheelchair_boarding":"available"},"type":"Feature"},{"geometry":{"coordinates":[-0.575359,44.848186],"type":"Point"},"properties":{"code":"JPUBR","description":"","id":"5395","name":"Jardin Public","parent_station":"JPUBL","wheelchair_boarding":"available"},"type":"Feature"},{"geometry":{"coordinates":[-0.574092,44.851967],"type":"Point"},"properties":{"code":"PDOUA","description":"","id":"5396","name":"Paul Doumer","parent_station":"PDOUM","wheelchair_boarding":"available"},"type":"Feature"},{"geometry":{"coordinates":[-0.603011,44.879296],"type":"Point"},"properties":{"code":"BRUSUA","description":"","id":"7713","name":"Ausone","parent_station":"BRUSUD","wheelchair_boarding":"available"},"type":"Feature"},{"geometry":{"coordinates":[-0.57433,44.874013],"type":"Point"},"properties":{"code":"AUBI2C","description":"","id":"5415","name":"Les Aubiers","parent_station":"AUBI2C","wheelchair_boarding":"available"},"type":"Feature"},{"geometry":{"coordinates":[-0.590942,44.811948],"type":"Point"},"properties":{"code":"FORUA","description":"","id":"3743","name":"Talence Centre-Forum","parent_station":"FORUM","wheelchair_boarding":"available"},"type":"Feature"},{"geometry":{"coordinates":[-0.54435,44.849767],"type":"Point"},"properties":{"code":"GALIN","description":"","id":"GALIN","name":"Galin","wheelchair_boarding":"unknown"},"type":"Feature"},{"geometry":{"coordinates":[-0.569656,44.841583],"type":"Point"},"properties":{"code":"BOURA","description":"","id":"3774","name":"Place de la Bourse","parent_station":"BOURS","wheelchair_boarding":"available"},"type":"Feature"},{"geometry":{"coordinates":[-0.589191,44.837438],"type":"Point"},"properties":{"code":"BRUNR","description":"","id":"4580","name":"St Bruno - Hôtel de Région","parent_station":"BRUNO","wheelchair_boarding":"available"},"type":"Feature"},{"geometry":{"coordinates":[-0.585616,44.849892],"type":"Point"},"properties":{"code":"SEGUER","description":"","id":"8323","name":"Croix de Seguey","parent_station":"SEGUEY","wheelchair_boarding":"available"},"type":"Feature"},{"geometry":{"coordinates":[-0.574033,44.82896],"type":"Point"},"properties":{"code":"NICOR","description":"","id":"3752","name":"Saint-Nicolas","parent_station":"NICOL","wheelchair_boarding":"available"},"type":"Feature"},{"geometry":{"coordinates":[-0.592898,44.853405],"type":"Point"},"properties":{"code":"BMEDOR","description":"","id":"8325","name":"Barrière du Médoc","parent_station":"BMEDOC","wheelchair_boarding":"available"},"type":"Feature"},{"geometry":{"coordinates":[-0.518186,44.854993],"type":"Point"},"properties":{"code":"MORLE","description":"","id":"MORLE","name":"La Morlette","wheelchair_boarding":"unknown"},"type":"Feature"},{"geometry":{"coordinates":[-0.628538,44.793987],"type":"Point"},"properties":{"code":"SAIGE","description":"","id":"SAIGE","name":"Saige","wheelchair_boarding":"unknown"},"type":"Feature"},{"geometry":{"coordinates":[-0.563384,44.834476],"type":"Point"},"properties":{"code":"SMICH","description":"","id":"SMICH","name":"Saint Michel","wheelchair_boarding":"unknown"},"type":"Feature"},{"geometry":{"coordinates":[-0.565832,44.893267],"type":"Point"},"properties":{"code":"TEXPO","description":"","id":"7328","name":"Parc des Expositions","parent_station":"TEXPO","wheelchair_boarding":"available"},"type":"Feature"},{"geometry":{"coordinates":[-0.566273,44.837186],"type":"Point"},"properties":{"code":"BRGAR","description":"","id":"3713","name":"Porte de Bourgogne","parent_station":"BRGA","wheelchair_boarding":"available"},"type":"Feature"},{"geometry":{"coordinates":[-0.55972,44.840316],"type":"Point"},"properties":{"code":"STALIT","description":"","id":"STALIT","name":"Stalingrad","wheelchair_boarding":"unknown"},"type":"Feature"},{"geometry":{"coordinates":[-0.545713,44.874463],"type":"Point"},"properties":{"code":"BRANR","description":"","id":"5533","name":"Brandenburg","parent_station":"BRANRG","wheelchair_boarding":"available"},"type":"Feature"},{"geometry":{"coordinates":[-0.65777,44.793107],"type":"Point"},"properties":{"code":"PESGAA","description":"","id":"7438","name":"Gare Pessac Alouette","parent_station":"PESGAR","wheelchair_boarding":"available"},"type":"Feature"},{"geometry":{"coordinates":[-0.651319,44.844197],"type":"Point"},"properties":{"code":"PGALA","description":"","id":"PGALA","name":"Pin Galant","wheelchair_boarding":"unknown"},"type":"Feature"},{"geometry":{"coordinates":[-0.619037,44.907057],"type":"Point"},"properties":{"code":"CBLANR","description":"","id":"7718","name":"Frankton","parent_station":"CBLANQ","wheelchair_boarding":"available"},"type":"Feature"},{"geometry":{"coordinates":[-0.614613,44.871672],"type":"Point"},"properties":{"code":"GERMAA","description":"","id":"8344","name":"Sainte Germaine","parent_station":"GERMA","wheelchair_boarding":"available"},"type":"Feature"},{"geometry":{"coordinates":[-0.578377,44.840586],"type":"Point"},"properties":{"code":"GAMBT","description":"","id":"GAMBT","name":"Gambetta - madd","wheelchair_boarding":"unknown"},"type":"Feature"},{"geometry":{"coordinates":[-0.544394,44.849757],"type":"Point"},"properties":{"code":"GALIA","description":"","id":"3704","name":"Galin","parent_station":"GALIN","wheelchair_boarding":"available"},"type":"Feature"},{"geometry":{"coordinates":[-0.569347,44.837925],"type":"Point"},"properties":{"code":"PALAA","description":"","id":"3714","name":"Place du Palais","parent_station":"PALAI","wheelchair_boarding":"available"},"type":"Feature"},{"geometry":{"coordinates":[-0.513118,44.854086],"type":"Point"},"properties":{"code":"JZAYR","description":"","id":"5213","name":"Jean zay","parent_station":"JZAY","wheelchair_boarding":"available"},"type":"Feature"},{"geometry":{"coordinates":[-0.644942,44.832618],"type":"Point"},"properties":{"code":"4CHEA","description":"","id":"5238","name":"Quatre Chemins","parent_station":"4CHEM","wheelchair_boarding":"available"},"type":"Feature"},{"geometry":{"coordinates":[-0.596954,44.8566],"type":"Point"},"properties":{"code":"COURBR","description":"","id":"8327","name":"Courbet","parent_station":"COURB","wheelchair_boarding":"available"},"type":"Feature"},{"geometry":{"coordinates":[-0.597116,44.856946],"type":"Point"},"properties":{"code":"COURBA","description":"","id":"8328","name":"Courbet","parent_station":"COURB","wheelchair_boarding":"available"},"type":"Feature"},{"geometry":{"coordinates":[-0.610207,44.828798],"type":"Point"},"properties":{"code":"AUG2A","description":"","id":"4590","name":"Saint-Augustin","parent_station":"AUGUS","wheelchair_boarding":"available"},"type":"Feature"},{"geometry":{"coordinates":[-0.534155,44.855968],"type":"Point"},"properties":{"code":"CENOG2","description":"","id":"5131","name":"Cenon Gare","parent_station":"CENOG","wheelchair_boarding":"available"},"type":"Feature"},{"geometry":{"coordinates":[-0.551237,44.811145],"type":"Point"},"properties":{"code":"BROSEA","description":"","id":"7392","name":"La Belle Rose","parent_station":"BROSE","wheelchair_boarding":"available"},"type":"Feature"},{"geometry":{"coordinates":[-0.567558,44.852826],"type":"Point"},"properties":{"code":"CHARA","description":"","id":"5255","name":"Chartrons","parent_station":"CHART","wheelchair_boarding":"available"},"type":"Feature"},{"geometry":{"coordinates":[-0.559783,44.840314],"type":"Point"},"properties":{"code":"STALA","description":"","id":"3710","name":"Stalingrad","parent_station":"STALIT","wheelchair_boarding":"available"},"type":"Feature"},{"geometry":{"coordinates":[-0.605139,44.865464],"type":"Point"},"properties":{"code":"MBOUS","description":"","id":"MBOUS","name":"Mairie du Bouscat","wheelchair_boarding":"unknown"},"type":"Feature"},{"geometry":{"coordinates":[-0.558536,44.829035],"type":"Point"},"properties":{"code":"TAUZR","description":"","id":"3767","name":"Tauzia","parent_station":"TAUZI","wheelchair_boarding":"available"},"type":"Feature"},{"geometry":{"coordinates":[-0.593124,44.833097],"type":"Point"},"properties":{"code":"GAVIN","description":"","id":"GAVIN","name":"Gaviniès","wheelchair_boarding":"unknown"},"type":"Feature"},{"geometry":{"coordinates":[-0.555343,44.843007],"type":"Point"},"properties":{"code":"JARDR","description":"","id":"3709","name":"Jardin Botanique","parent_station":"JARDI","wheelchair_boarding":"available"},"type":"Feature"},{"geometry":{"coordinates":[-0.50887,44.850778],"type":"Point"},"properties":{"code":"MAREA","description":"","id":"5215","name":"La Marègue","parent_station":"MAREG","wheelchair_boarding":"available"},"type":"Feature"},{"geometry":{"coordinates":[-0.573959,44.828989],"type":"Point"},"properties":{"code":"NICOA","description":"","id":"3751","name":"Saint-Nicolas","parent_station":"NICOL","wheelchair_boarding":"available"},"type":"Feature"},{"geometry":{"coordinates":[-0.598508,44.831422],"type":"Point"},"properties":{"code":"CDELM","description":"","id":"CDELM","name":"Stade Chaban Delmas","wheelchair_boarding":"unknown"},"type":"Feature"},{"geometry":{"coordinates":[-0.62859,44.794003],"type":"Point"},"properties":{"code":"SAIGR","description":"","id":"3726","name":"Saige","parent_station":"SAIGE","wheelchair_boarding":"available"},"type":"Feature"},{"geometry":{"coordinates":[-0.5705,44.849073],"type":"Point"},"properties":{"code":"CAPCR","description":"","id":"5252","name":"CAPC Musée d'Art Contemporain","parent_station":"CAPC","wheelchair_boarding":"available"},"type":"Feature"},{"geometry":{"coordinates":[-0.574503,44.85464],"type":"Point"},"properties":{"code":"GODAR","description":"","id":"5399","name":"Camille Godard","parent_station":"GODAR","wheelchair_boarding":"available"},"type":"Feature"},{"geometry":{"coordinates":[-0.628211,44.873986],"type":"Point"},"properties":{"code":"HIPPR","description":"","id":"8349","name":"Hippodrome","parent_station":"THIPPO","wheelchair_boarding":"available"},"type":"Feature"},{"geometry":{"coordinates":[-0.547338,44.871094],"type":"Point"},"properties":{"code":"NYORKR","description":"","id":"5531","name":"New York","parent_station":"NYORK","wheelchair_boarding":"available"},"type":"Feature"},{"geometry":{"coordinates":[-0.581527,44.836253],"type":"Point"},"properties":{"code":"PJUSR","description":"","id":"3721","name":"Palais de Justice","parent_station":"PJUST","wheelchair_boarding":"available"},"type":"Feature"},{"geometry":{"coordinates":[-0.597899,44.831604],"type":"Point"},"properties":{"code":"CDELA","description":"","id":"4585","name":"Stade Chaban Delmas","parent_station":"CDELM","wheelchair_boarding":"available"},"type":"Feature"},{"geometry":{"coordinates":[-0.634037,44.794082],"type":"Point"},"properties":{"code":"BOUGN","description":"","id":"BOUGN","name":"Bougnard","wheelchair_boarding":"unknown"},"type":"Feature"},{"geometry":{"coordinates":[-0.617454,44.796801],"type":"Point"},"properties":{"code":"MONTA","description":"","id":"MONTA","name":"Montaigne - Montesquieu","wheelchair_boarding":"unknown"},"type":"Feature"},{"geometry":{"coordinates":[-0.590981,44.811965],"type":"Point"},"properties":{"code":"FORUR","description":"","id":"3744","name":"Talence Centre-Forum","parent_station":"FORUM","wheelchair_boarding":"available"},"type":"Feature"},{"geometry":{"coordinates":[-0.566213,44.782392],"type":"Point"},"properties":{"code":"BRIANA","description":"","id":"7721","name":"Villenave-Centre Pont de la Maye","parent_station":"BRIAND","wheelchair_boarding":"available"},"type":"Feature"},{"geometry":{"coordinates":[-0.609639,44.800273],"type":"Point"},"properties":{"code":"DOYEN","description":"","id":"DOYEN","name":"Doyen Brus","wheelchair_boarding":"unknown"},"type":"Feature"},{"geometry":{"coordinates":[-0.632546,44.804292],"type":"Point"},"properties":{"code":"PESSA","description":"","id":"PESSA","name":"Pessac Centre","wheelchair_boarding":"unknown"},"type":"Feature"},{"geometry":{"coordinates":[-0.548691,44.866626],"type":"Point"},"properties":{"code":"ACHAR","description":"","id":"ACHAR","name":"Rue Achard","wheelchair_boarding":"unknown"},"type":"Feature"},{"geometry":{"coordinates":[-0.580232,44.846731],"type":"Point"},"properties":{"code":"FONDAA","description":"","id":"8322","name":"Fondaudège - Muséum","parent_station":"FONDAU","wheelchair_boarding":"available"},"type":"Feature"},{"geometry":{"coordinates":[-0.634793,44.800289],"type":"Point"},"properties":{"code":"MONTEA","description":"","id":"5245","name":"Camponac Médiathèque","parent_station":"MONTES","wheelchair_boarding":"available"},"type":"Feature"},{"geometry":{"coordinates":[-0.604595,44.830161],"type":"Point"},"properties":{"code":"HOPIT","description":"","id":"HOPIT","name":"Hôpital Pellegrin","wheelchair_boarding":"unknown"},"type":"Feature"},{"geometry":{"coordinates":[-0.628713,44.873916],"type":"Point"},"properties":{"code":"HIPPA","description":"","id":"8348","name":"Hippodrome","parent_station":"THIPPO","wheelchair_boarding":"available"},"type":"Feature"},{"geometry":{"coordinates":[-0.619918,44.826588],"type":"Point"},"properties":{"code":"PEYCHO","description":"","id":"PEYCHO","name":"Peychotte","wheelchair_boarding":"unknown"},"type":"Feature"},{"geometry":{"coordinates":[-0.633919,44.830222],"type":"Point"},"properties":{"code":"VIGNR","description":"","id":"5235","name":"Alfred de Vigny","parent_station":"VIGNY","wheelchair_boarding":"available"},"type":"Feature"},{"geometry":{"coordinates":[-0.537793,44.853784],"type":"Point"},"properties":{"code":"JAURE","description":"","id":"JAURE","name":"Jean Jaurès","wheelchair_boarding":"unknown"},"type":"Feature"},{"geometry":{"coordinates":[-0.619082,44.907258],"type":"Point"},"properties":{"code":"CBLANQ","description":"","id":"CBLANQ","name":"Frankton","wheelchair_boarding":"unknown"},"type":"Feature"},{"geometry":{"coordinates":[-0.523841,44.882198],"type":"Point"},"properties":{"code":"CARRR","description":"","id":"5444","name":"Carriet","parent_station":"CARRI","wheelchair_boarding":"available"},"type":"Feature"},{"geometry":{"coordinates":[-0.544306,44.849777],"type":"Point"},"properties":{"code":"GALIR","description":"","id":"3705","name":"Galin","parent_station":"GALIN","wheelchair_boarding":"available"},"type":"Feature"},{"geometry":{"coordinates":[-0.600709,44.86121],"type":"Point"},"properties":{"code":"CALYPS","description":"","id":"CALYPS","name":"Calypso","wheelchair_boarding":"unknown"},"type":"Feature"},{"geometry":{"coordinates":[-0.606745,44.803499],"type":"Point"},"properties":{"code":"BORDE","description":"","id":"BORDE","name":"François Bordes","wheelchair_boarding":"unknown"},"type":"Feature"},{"geometry":{"coordinates":[-0.567126,44.889296],"type":"Point"},"properties":{"code":"PCONGA","description":"","id":"7325","name":"Palais des congrès","parent_station":"PCONGR","wheelchair_boarding":"available"},"type":"Feature"},{"geometry":{"coordinates":[-0.559422,44.831809],"type":"Point"},"properties":{"code":"CRO0IB","description":"","id":"3769","name":"Sainte-Croix","parent_station":"CROIX","wheelchair_boarding":"available"},"type":"Feature"},{"geometry":{"coordinates":[-0.510414,44.845898],"type":"Point"},"properties":{"code":"DRAVE","description":"","id":"5217","name":"Floirac Dravemont","parent_station":"DRAVE","wheelchair_boarding":"available"},"type":"Feature"},{"geometry":{"coordinates":[-0.575337,44.835511],"type":"Point"},"properties":{"code":"MUSEE","description":"","id":"MUSEE","name":"Musée d'aquitaine","wheelchair_boarding":"unknown"},"type":"Feature"},{"geometry":{"coordinates":[-0.570402,44.883089],"type":"Point"},"properties":{"code":"40JOU","description":"","id":"40JOU","name":"Quarante Journaux","wheelchair_boarding":"unknown"},"type":"Feature"},{"geometry":{"coordinates":[-0.551951,44.798207],"type":"Point"},"properties":{"code":"DORGA2","description":"","id":"7397","name":"Gare de bègles","parent_station":"DORGAT","wheelchair_boarding":"available"},"type":"Feature"},{"geometry":{"coordinates":[-0.563191,44.855887],"type":"Point"},"properties":{"code":"MEDOA","description":"","id":"5257","name":"Cours du Médoc","parent_station":"MEDOC","wheelchair_boarding":"available"},"type":"Feature"},{"geometry":{"coordinates":[-0.655403,44.78766],"type":"Point"},"properties":{"code":"HTLEVA","description":"","id":"7436","name":"Hôpital Haut-Lévêque","parent_station":"HTLEV","wheelchair_boarding":"available"},"type":"Feature"},{"geometry":{"coordinates":[-0.551838,44.798211],"type":"Point"},"properties":{"code":"DORGA1","description":"","id":"7398","name":"Gare de bègles","parent_station":"DORGAT","wheelchair_boarding":"available"},"type":"Feature"},{"geometry":{"coordinates":[-0.614224,44.827157],"type":"Point"},"properties":{"code":"FRMIT","description":"","id":"FRMIT","name":"François Mitterrand","wheelchair_boarding":"unknown"},"type":"Feature"},{"geometry":{"coordinates":[-0.563379,44.834494],"type":"Point"},"properties":{"code":"SMICA","description":"","id":"3770","name":"Saint-Michel","parent_station":"SMICH","wheelchair_boarding":"available"},"type":"Feature"},{"geometry":{"coordinates":[-0.575818,44.867125],"type":"Point"},"properties":{"code":"RAVEA","description":"","id":"5412","name":"Place Ravezies - le Bouscat","parent_station":"RAVESI","wheelchair_boarding":"available"},"type":"Feature"},{"geometry":{"coordinates":[-0.655408,44.787741],"type":"Point"},"properties":{"code":"HTLEVR","description":"","id":"7435","name":"Hôpital Haut-Lévêque","parent_station":"HTLEV","wheelchair_boarding":"available"},"type":"Feature"},{"geometry":{"coordinates":[-0.646906,44.841413],"type":"Point"},"properties":{"code":"CMERIA","description":"","id":"5243","name":"Mérignac Centre","parent_station":"TMERI","wheelchair_boarding":"available"},"type":"Feature"},{"geometry":{"coordinates":[-0.523489,44.87983],"type":"Point"},"properties":{"code":"HVILA","description":"","id":"5442","name":"Mairie de Lormont","parent_station":"HVILL","wheelchair_boarding":"available"},"type":"Feature"},{"geometry":{"coordinates":[-0.576263,44.870932],"type":"Point"},"properties":{"code":"CRACO2","description":"","id":"7344","name":"Cracovie","parent_station":"CRACOT","wheelchair_boarding":"available"},"type":"Feature"},{"geometry":{"coordinates":[-0.609099,44.869008],"type":"Point"},"properties":{"code":"LESEC","description":"","id":"LESEC","name":"Les Ecus","wheelchair_boarding":"unknown"},"type":"Feature"},{"geometry":{"coordinates":[-0.570427,44.849129],"type":"Point"},"properties":{"code":"CAPCA","description":"","id":"5253","name":"CAPC Musée d'Art Contemporain","parent_station":"CAPC","wheelchair_boarding":"available"},"type":"Feature"},{"geometry":{"coordinates":[-0.51822,44.855024],"type":"Point"},"properties":{"code":"MORLA","description":"","id":"5212","name":"La Morlette","parent_station":"MORLE","wheelchair_boarding":"available"},"type":"Feature"},{"geometry":{"coordinates":[-0.575323,44.848223],"type":"Point"},"properties":{"code":"JPUBA","description":"","id":"5394","name":"Jardin Public","parent_station":"JPUBL","wheelchair_boarding":"available"},"type":"Feature"},{"geometry":{"coordinates":[-0.608897,44.868911],"type":"Point"},"properties":{"code":"LESECR","description":"","id":"8341","name":"Les Ecus","parent_station":"LESEC","wheelchair_boarding":"available"},"type":"Feature"},{"geometry":{"coordinates":[-0.609302,44.869105],"type":"Point"},"properties":{"code":"LESECA","description":"","id":"8342","name":"Les Ecus","parent_station":"LESEC","wheelchair_boarding":"available"},"type":"Feature"},{"geometry":{"coordinates":[-0.543812,44.877867],"type":"Point"},"properties":{"code":"CLA1B","description":"","id":"5534","name":"Claveau","parent_station":"CLAVE","wheelchair_boarding":"available"},"type":"Feature"},{"geometry":{"coordinates":[-0.573279,44.837609],"type":"Point"},"properties":{"code":"CATHR","description":"","id":"3717","name":"Sainte Catherine","parent_station":"CATHE","wheelchair_boarding":"available"},"type":"Feature"},{"geometry":{"coordinates":[-0.566384,44.837137],"type":"Point"},"properties":{"code":"BRGCR","description":"","id":"3773","name":"Porte de Bourgogne","parent_station":"BRGC","wheelchair_boarding":"available"},"type":"Feature"},{"geometry":{"coordinates":[-0.55543,44.842987],"type":"Point"},"properties":{"code":"JARDA","description":"","id":"3708","name":"Jardin Botanique","parent_station":"JARDI","wheelchair_boarding":"available"},"type":"Feature"},{"geometry":{"coordinates":[-0.553159,44.860733],"type":"Point"},"properties":{"code":"FLO1B","description":"","id":"5261","name":"La Cité du Vin","parent_station":"FLO12B","wheelchair_boarding":"available"},"type":"Feature"},{"geometry":{"coordinates":[-0.569257,44.837901],"type":"Point"},"properties":{"code":"PALAR","description":"","id":"3715","name":"Place du Palais","parent_station":"PALAI","wheelchair_boarding":"available"},"type":"Feature"},{"geometry":{"coordinates":[-0.651609,44.789254],"type":"Point"},"properties":{"code":"CMETIA","description":"","id":"7434","name":"Cap Métiers","parent_station":"CMETIE","wheelchair_boarding":"available"},"type":"Feature"},{"geometry":{"coordinates":[-0.610245,44.828801],"type":"Point"},"properties":{"code":"AUGUS","description":"","id":"AUGUS","name":"Saint-Augustin","wheelchair_boarding":"unknown"},"type":"Feature"},{"geometry":{"coordinates":[-0.576231,44.871023],"type":"Point"},"properties":{"code":"CRACO1","description":"","id":"7343","name":"Cracovie","parent_station":"CRACOT","wheelchair_boarding":"available"},"type":"Feature"},{"geometry":{"coordinates":[-0.563291,44.855866],"type":"Point"},"properties":{"code":"MEDOR","description":"","id":"5256","name":"Cours du Médoc","parent_station":"MEDOC","wheelchair_boarding":"available"},"type":"Feature"},{"geometry":{"coordinates":[-0.604595,44.830161],"type":"Point"},"properties":{"code":"HOPIT2","description":"","id":"4588","name":"Hôpital Pellegrin","parent_station":"HOPIT","wheelchair_boarding":"available"},"type":"Feature"},{"geometry":{"coordinates":[-0.566227,44.782022],"type":"Point"},"properties":{"code":"BRIANR","description":"","id":"7722","name":"Villenave-Centre Pont de la Maye","parent_station":"BRIAND","wheelchair_boarding":"available"},"type":"Feature"},{"geometry":{"coordinates":[-0.646832,44.841446],"type":"Point"},"properties":{"code":"TMERI","description":"","id":"TMERI","name":"Mérignac Centre","wheelchair_boarding":"unknown"},"type":"Feature"},{"geometry":{"coordinates":[-0.558875,44.857954],"type":"Point"},"properties":{"code":"HANGR","description":"","id":"5258","name":"Les Hangars","parent_station":"HANGA","wheelchair_boarding":"available"},"type":"Feature"},{"geometry":{"coordinates":[-0.577162,44.837317],"type":"Point"},"properties":{"code":"HDVA","description":"","id":"HDVA","name":"Hôtel de Ville","wheelchair_boarding":"unknown"},"type":"Feature"},{"geometry":{"coordinates":[-0.570463,44.849101],"type":"Point"},"properties":{"code":"CAPC","description":"","id":"CAPC","name":"CAPC Musée d'Art Contemporain","wheelchair_boarding":"unknown"},"type":"Feature"},{"geometry":{"coordinates":[-0.574202,44.87399],"type":"Point"},"properties":{"code":"AUBI1C","description":"","id":"AUBI1C","name":"Les Aubiers","wheelchair_boarding":"unknown"},"type":"Feature"},{"geometry":{"coordinates":[-0.567182,44.889276],"type":"Point"},"properties":{"code":"PCONGR","description":"","id":"PCONGR","name":"Palais des congrès","wheelchair_boarding":"unknown"},"type":"Feature"},{"geometry":{"coordinates":[-0.658272,44.844171],"type":"Point"},"properties":{"code":"UTRILL","description":"","id":"UTRILL","name":"Hotel de Ville Mérignac","wheelchair_boarding":"unknown"},"type":"Feature"},{"geometry":{"coordinates":[-0.659812,44.856905],"type":"Point"},"properties":{"code":"LESPIN","description":"","id":"LESPIN","name":"Les Pins","wheelchair_boarding":"unknown"},"type":"Feature"},{"geometry":{"coordinates":[-0.523916,44.882187],"type":"Point"},"properties":{"code":"CARRA","description":"","id":"5443","name":"Carriet","parent_station":"CARRI","wheelchair_boarding":"available"},"type":"Feature"},{"geometry":{"coordinates":[-0.588815,44.834927],"type":"Point"},"properties":{"code":"POLIR","description":"","id":"4582","name":"Hôtel de Police","parent_station":"POLIC","wheelchair_boarding":"available"},"type":"Feature"},{"geometry":{"coordinates":[-0.589306,44.837461],"type":"Point"},"properties":{"code":"BRUNA","description":"","id":"4579","name":"St Bruno - Hôtel de Région","parent_station":"BRUNO","wheelchair_boarding":"available"},"type":"Feature"},{"geometry":{"coordinates":[-0.590992,44.872331],"type":"Point"},"properties":{"code":"VACHEA","description":"","id":"7711","name":"La Vache","parent_station":"VACHE","wheelchair_boarding":"available"},"type":"Feature"},{"geometry":{"coordinates":[-0.523516,44.879847],"type":"Point"},"properties":{"code":"HVILL","description":"","id":"HVILL","name":"Mairie de Lormont","wheelchair_boarding":"unknown"},"type":"Feature"},{"geometry":{"coordinates":[-0.55943,44.831841],"type":"Point"},"properties":{"code":"CROIX","description":"","id":"CROIX","name":"Sainte Croix","wheelchair_boarding":"unknown"},"type":"Feature"},{"geometry":{"coordinates":[-0.639849,44.830158],"type":"Point"},"properties":{"code":"MENDE","description":"","id":"MENDE","name":"Pierre Mendès France","wheelchair_boarding":"unknown"},"type":"Feature"},{"geometry":{"coordinates":[-0.519729,44.862226],"type":"Point"},"properties":{"code":"PALMER","description":"","id":"PALMER","name":"Palmer","wheelchair_boarding":"unknown"},"type":"Feature"},{"geometry":{"coordinates":[-0.60672,44.803504],"type":"Point"},"properties":{"code":"BORDA","description":"","id":"3735","name":"François Bordes","parent_station":"BORDE","wheelchair_boarding":"available"},"type":"Feature"},{"geometry":{"coordinates":[-0.576231,44.871023],"type":"Point"},"properties":{"code":"CRACOT","description":"","id":"CRACOT","name":"Cracovie","wheelchair_boarding":"unknown"},"type":"Feature"},{"geometry":{"coordinates":[-0.659766,44.887876],"type":"Point"},"properties":{"code":"SOURCR","description":"","id":"8357","name":"Les Sources","parent_station":"SOURCE","wheelchair_boarding":"available"},"type":"Feature"},{"geometry":{"coordinates":[-0.655966,44.850002],"type":"Point"},"properties":{"code":"FRROBR","description":"","id":"7334","name":"Frères Robinson","parent_station":"FRROBI","wheelchair_boarding":"available"},"type":"Feature"},{"geometry":{"coordinates":[-0.632546,44.804292],"type":"Point"},"properties":{"code":"PESSA","description":"","id":"5247","name":"Pessac Centre","parent_station":"PESSA","wheelchair_boarding":"available"},"type":"Feature"},{"geometry":{"coordinates":[-0.551838,44.798211],"type":"Point"},"properties":{"code":"DORGAT","description":"","id":"DORGAT","name":"Gare de Bègles","wheelchair_boarding":"unknown"},"type":"Feature"},{"geometry":{"coordinates":[-0.519726,44.858644],"type":"Point"},"properties":{"code":"CPELR","description":"","id":"3695","name":"Pelletan","parent_station":"CPELL","wheelchair_boarding":"available"},"type":"Feature"},{"geometry":{"coordinates":[-0.524948,44.864102],"type":"Point"},"properties":{"code":"BUTTA","description":"","id":"3691","name":"Buttinière","parent_station":"BUTTI","wheelchair_boarding":"available"},"type":"Feature"},{"geometry":{"coordinates":[-0.56622,44.782207],"type":"Point"},"properties":{"code":"BRIAND","description":"","id":"BRIAND","name":"Villenave-Centre Pont de la Maye","wheelchair_boarding":"unknown"},"type":"Feature"},{"geometry":{"coordinates":[-0.646796,44.841462],"type":"Point"},"properties":{"code":"TMERI","description":"","id":"5242","name":"Mérignac Centre","parent_station":"TMERI","wheelchair_boarding":"available"},"type":"Feature"},{"geometry":{"coordinates":[-0.592591,44.807244],"type":"Point"},"properties":{"code":"PEXOA","description":"","id":"3741","name":"Peixotto","parent_station":"PEIXOT","wheelchair_boarding":"available"},"type":"Feature"},{"geometry":{"coordinates":[-0.558774,44.857966],"type":"Point"},"properties":{"code":"HANGA","description":"","id":"5259","name":"Les Hangars","parent_station":"HANGA","wheelchair_boarding":"available"},"type":"Feature"},{"geometry":{"coordinates":[-0.573036,44.831191],"type":"Point"},"properties":{"code":"VICTA","description":"","id":"3754","name":"Victoire","parent_station":"VICTO","wheelchair_boarding":"available"},"type":"Feature"},{"geometry":{"coordinates":[-0.659827,44.85695],"type":"Point"},"properties":{"code":"LESPIA","description":"","id":"7335","name":"Les Pins","parent_station":"LESPIN","wheelchair_boarding":"available"},"type":"Feature"},{"geometry":{"coordinates":[-0.584322,44.838163],"type":"Point"},"properties":{"code":"MERIA","description":"","id":"3722","name":"Mériadeck","parent_station":"MERIA","wheelchair_boarding":"available"},"type":"Feature"},{"geometry":{"coordinates":[-0.577136,44.837305],"type":"Point"},"properties":{"code":"HDVAR","description":"","id":"3719","name":"Hôtel de Ville","parent_station":"HDVA","wheelchair_boarding":"available"},"type":"Feature"},{"geometry":{"coordinates":[-0.590532,44.872084],"type":"Point"},"properties":{"code":"VACHER","description":"","id":"7712","name":"La Vache","parent_station":"VACHE","wheelchair_boarding":"available"},"type":"Feature"},{"geometry":{"coordinates":[-0.641485,44.881456],"type":"Point"},"properties":{"code":"PICOTA","description":"","id":"8352","name":"Picot","parent_station":"PICOT","wheelchair_boarding":"available"},"type":"Feature"},{"geometry":{"coordinates":[-0.650044,44.884014],"type":"Point"},"properties":{"code":"EYSINA","description":"","id":"8354","name":"Eysines Centre","parent_station":"EYSINE","wheelchair_boarding":"available"},"type":"Feature"},{"geometry":{"coordinates":[-0.581492,44.836299],"type":"Point"},"properties":{"code":"PJUSA","description":"","id":"3720","name":"Palais de Justice","parent_station":"PJUST","wheelchair_boarding":"available"},"type":"Feature"},{"geometry":{"coordinates":[-0.604571,44.830189],"type":"Point"},"properties":{"code":"HOPIT1","description":"","id":"4587","name":"Hôpital Pellegrin","parent_station":"HOPIT","wheelchair_boarding":"available"},"type":"Feature"},{"geometry":{"coordinates":[-0.543861,44.877847],"type":"Point"},"properties":{"code":"CLA2B","description":"","id":"5535","name":"Claveau","parent_station":"CLAVE","wheelchair_boarding":"available"},"type":"Feature"},{"geometry":{"coordinates":[-0.531537,44.85776],"type":"Point"},"properties":{"code":"CARNO","description":"","id":"CARNO","name":"Carnot - Mairie de Cenon","wheelchair_boarding":"unknown"},"type":"Feature"},{"geometry":{"coordinates":[-0.522654,44.868546],"type":"Point"},"properties":{"code":"IRIR","description":"","id":"3690","name":"Iris","parent_station":"IRIS","wheelchair_boarding":"available"},"type":"Feature"},{"geometry":{"coordinates":[-0.550395,44.819851],"type":"Point"},"properties":{"code":"VERNT","description":"","id":"VERNT","name":"Carle Vernet","wheelchair_boarding":"unknown"},"type":"Feature"},{"geometry":{"coordinates":[-0.523879,44.882192],"type":"Point"},"properties":{"code":"CARRI","description":"","id":"CARRI","name":"Carriet","wheelchair_boarding":"unknown"},"type":"Feature"},{"geometry":{"coordinates":[-0.621598,44.796278],"type":"Point"},"properties":{"code":"UNITR","description":"","id":"3728","name":"Unitec","parent_station":"UNITE","wheelchair_boarding":"available"},"type":"Feature"},{"geometry":{"coordinates":[-0.563389,44.834458],"type":"Point"},"properties":{"code":"SMICR","description":"","id":"3771","name":"Saint-Michel","parent_station":"SMICH","wheelchair_boarding":"available"},"type":"Feature"},{"geometry":{"coordinates":[-0.593156,44.833101],"type":"Point"},"properties":{"code":"GAVIA","description":"","id":"4583","name":"Gaviniès","parent_station":"GAVIN","wheelchair_boarding":"available"},"type":"Feature"},{"geometry":{"coordinates":[-0.609868,44.887752],"type":"Point"},"properties":{"code":"BRUGAA","description":"","id":"7715","name":"Gare de Bruges","parent_station":"BRUGAR","wheelchair_boarding":"available"},"type":"Feature"},{"geometry":{"coordinates":[-0.636963,44.879756],"type":"Point"},"properties":{"code":"SVEILA","description":"","id":"8350","name":"Simone Veil","parent_station":"SVEIL","wheelchair_boarding":"available"},"type":"Feature"},{"geometry":{"coordinates":[-0.520231,44.872741],"type":"Point"},"properties":{"code":"GRAVA","description":"","id":"3687","name":"Gravières","parent_station":"GRAVI","wheelchair_boarding":"available"},"type":"Feature"},{"geometry":{"coordinates":[-0.588832,44.834903],"type":"Point"},"properties":{"code":"POLIC","description":"","id":"POLIC","name":"Hôtel de Police","wheelchair_boarding":"unknown"},"type":"Feature"},{"geometry":{"coordinates":[-0.545682,44.874473],"type":"Point"},"properties":{"code":"BRANRG","description":"","id":"BRANRG","name":"Brandenburg","wheelchair_boarding":"unknown"},"type":"Feature"},{"geometry":{"coordinates":[-0.585787,44.849985],"type":"Point"},"properties":{"code":"SEGUEY","description":"","id":"SEGUEY","name":"Croix de Seguey","wheelchair_boarding":"unknown"},"type":"Feature"},{"geometry":{"coordinates":[-0.597035,44.856773],"type":"Point"},"properties":{"code":"COURB","description":"","id":"COURB","name":"Courbet","wheelchair_boarding":"unknown"},"type":"Feature"},{"geometry":{"coordinates":[-0.582851,44.821172],"type":"Point"},"properties":{"code":"BGENE","description":"","id":"BGENE","name":"Barrière Saint Genès","wheelchair_boarding":"unknown"},"type":"Feature"},{"geometry":{"coordinates":[-0.667379,44.891847],"type":"Point"},"properties":{"code":"TERCAN","description":"","id":"TERCAN","name":"Cantinolle","wheelchair_boarding":"unknown"},"type":"Feature"},{"geometry":{"coordinates":[-0.555204,44.850015],"type":"Point"},"properties":{"code":"DEPTR","description":"","id":"DEPTR","name":"Dépôt Tramway Bastide","wheelchair_boarding":"unknown"},"type":"Feature"},{"geometry":{"coordinates":[-0.55972,44.840316],"type":"Point"},"properties":{"code":"STALR","description":"","id":"3711","name":"Stalingrad","parent_station":"STALIT","wheelchair_boarding":"available"},"type":"Feature"},{"geometry":{"coordinates":[-0.550395,44.819851],"type":"Point"},"properties":{"code":"VERNE1","description":"","id":"5437","name":"Carle Vernet","parent_station":"VERNT","wheelchair_boarding":"available"},"type":"Feature"},{"geometry":{"coordinates":[-0.559438,44.831872],"type":"Point"},"properties":{"code":"CRO0IA","description":"","id":"3768","name":"Sainte-Croix","parent_station":"CROIX","wheelchair_boarding":"available"},"type":"Feature"},{"geometry":{"coordinates":[-0.566281,44.837217],"type":"Point"},"properties":{"code":"BRGA","description":"","id":"BRGA","name":"Porte de Bourgogne","wheelchair_boarding":"unknown"},"type":"Feature"},{"geometry":{"coordinates":[-0.617454,44.796801],"type":"Point"},"properties":{"code":"MONTA2","description":"","id":"3730","name":"Montaigne - Montesquieu","parent_station":"MONTA","wheelchair_boarding":"available"},"type":"Feature"},{"geometry":{"coordinates":[-0.602459,44.879196],"type":"Point"},"properties":{"code":"BRUSUR","description":"","id":"7714","name":"Ausone","parent_station":"BRUSUD","wheelchair_boarding":"available"},"type":"Feature"},{"geometry":{"coordinates":[-0.579924,44.846471],"type":"Point"},"properties":{"code":"FONDAR","description":"","id":"8321","name":"Fondaudège - Muséum","parent_station":"FONDAU","wheelchair_boarding":"available"},"type":"Feature"},{"geometry":{"coordinates":[-0.599117,44.83124],"type":"Point"},"properties":{"code":"CDELR","description":"","id":"4586","name":"Stade Chaban Delmas","parent_station":"CDELM","wheelchair_boarding":"available"},"type":"Feature"},{"geometry":{"coordinates":[-0.575852,44.86707],"type":"Point"},"properties":{"code":"RAVER","description":"","id":"5413","name":"Place Ravezies - le Bouscat","parent_station":"RAVESI","wheelchair_boarding":"available"},"type":"Feature"},{"geometry":{"coordinates":[-0.57829,44.840115],"type":"Point"},"properties":{"code":"GAMBR","description":"","id":"3760","name":"Gambetta - madd","parent_station":"GAMBT","wheelchair_boarding":"available"},"type":"Feature"},{"geometry":{"coordinates":[-0.573047,44.831173],"type":"Point"},"properties":{"code":"VICTO","description":"","id":"VICTO","name":"Victoire","wheelchair_boarding":"unknown"},"type":"Feature"},{"geometry":{"coordinates":[-0.567608,44.852807],"type":"Point"},"properties":{"code":"CHART","description":"","id":"CHART","name":"Chartrons","wheelchair_boarding":"unknown"},"type":"Feature"},{"geometry":{"coordinates":[-0.520201,44.872774],"type":"Point"},"properties":{"code":"GRAVI","description":"","id":"GRAVI","name":"Gravières","wheelchair_boarding":"unknown"},"type":"Feature"},{"geometry":{"coordinates":[-0.550446,44.819858],"type":"Point"},"properties":{"code":"VERNE2","description":"","id":"5436","name":"Carle Vernet","parent_station":"VERNT","wheelchair_boarding":"available"},"type":"Feature"},{"geometry":{"coordinates":[-0.517313,44.887668],"type":"Point"},"properties":{"code":"LGARDE","description":"","id":"LGARDE","name":"La Gardette - Bassens - Carbon-Blanc","wheelchair_boarding":"unknown"},"type":"Feature"},{"geometry":{"coordinates":[-0.62186,44.876528],"type":"Point"},"properties":{"code":"TREULA","description":"","id":"8346","name":"Champ de Courses - Treulon","parent_station":"TREULO","wheelchair_boarding":"available"},"type":"Feature"},{"geometry":{"coordinates":[-0.623611,44.91679],"type":"Point"},"properties":{"code":"GABLAN","description":"","id":"GABLAN","name":"Gare de Blanquefort","wheelchair_boarding":"unknown"},"type":"Feature"},{"geometry":{"coordinates":[-0.551995,44.80291],"type":"Point"},"properties":{"code":"CALAISA","description":"","id":"7396","name":"Calais - Centujean","parent_station":"CALAIS","wheelchair_boarding":"available"},"type":"Feature"},{"geometry":{"coordinates":[-0.578247,44.825025],"type":"Point"},"properties":{"code":"BERGO","description":"","id":"BERGO","name":"Bergonié","wheelchair_boarding":"unknown"},"type":"Feature"},{"geometry":{"coordinates":[-0.563241,44.855876],"type":"Point"},"properties":{"code":"MEDOC","description":"","id":"MEDOC","name":"Cours du Médoc","wheelchair_boarding":"unknown"},"type":"Feature"},{"geometry":{"coordinates":[-0.628462,44.873951],"type":"Point"},"properties":{"code":"THIPPO","description":"","id":"THIPPO","name":"Hippodrome","wheelchair_boarding":"unknown"},"type":"Feature"},{"geometry":{"coordinates":[-0.558825,44.85796],"type":"Point"},"properties":{"code":"HANGA","description":"","id":"HANGA","name":"Les Hangars","wheelchair_boarding":"unknown"},"type":"Feature"},{"geometry":{"coordinates":[-0.598005,44.805987],"type":"Point"},"properties":{"code":"BETHA","description":"","id":"3739","name":"Béthanie","parent_station":"BETHA","wheelchair_boarding":"available"},"type":"Feature"},{"geometry":{"coordinates":[-0.585639,44.816941],"type":"Point"},"properties":{"code":"ROUSA","description":"","id":"3745","name":"Roustaing","parent_station":"ROUST","wheelchair_boarding":"available"},"type":"Feature"},{"geometry":{"coordinates":[-0.578278,44.82502],"type":"Point"},"properties":{"code":"BERGR","description":"","id":"3750","name":"Bergonié","parent_station":"BERGO","wheelchair_boarding":"available"},"type":"Feature"},{"geometry":{"coordinates":[-0.519718,44.858707],"type":"Point"},"properties":{"code":"CPELA","description":"","id":"3694","name":"Pelletan","parent_station":"CPELL","wheelchair_boarding":"available"},"type":"Feature"},{"geometry":{"coordinates":[-0.628486,44.793971],"type":"Point"},"properties":{"code":"SAIGA","description":"","id":"3725","name":"Saige","parent_station":"SAIGE","wheelchair_boarding":"available"},"type":"Feature"},{"geometry":{"coordinates":[-0.619879,44.826572],"type":"Point"},"properties":{"code":"PEYCR","description":"","id":"5231","name":"Peychotte","parent_station":"PEYCHO","wheelchair_boarding":"available"},"type":"Feature"},{"geometry":{"coordinates":[-0.574113,44.851894],"type":"Point"},"properties":{"code":"PDOUR","description":"","id":"5397","name":"Paul Doumer","parent_station":"PDOUM","wheelchair_boarding":"available"},"type":"Feature"},{"geometry":{"coordinates":[-0.51976,44.862212],"type":"Point"},"properties":{"code":"PALMR","description":"","id":"3697","name":"Palmer","parent_station":"PALMER","wheelchair_boarding":"available"},"type":"Feature"},{"geometry":{"coordinates":[-0.569677,44.84152],"type":"Point"},"properties":{"code":"BOURR","description":"","id":"3775","name":"Place de la Bourse","parent_station":"BOURS","wheelchair_boarding":"available"},"type":"Feature"},{"geometry":{"coordinates":[-0.550882,44.815338],"type":"Point"},"properties":{"code":"NEUVER","description":"","id":"5439","name":"Terres Neuves","parent_station":"NEUVE","wheelchair_boarding":"available"},"type":"Feature"},{"geometry":{"coordinates":[-0.574934,44.858627],"type":"Point"},"properties":{"code":"ECOUR","description":"","id":"5401","name":"Emile Counord","parent_station":"ECOUN","wheelchair_boarding":"available"},"type":"Feature"},{"geometry":{"coordinates":[-0.55087,44.845782],"type":"Point"},"properties":{"code":"TBENA","description":"","id":"3706","name":"Thiers-Benauge","parent_station":"TBENE","wheelchair_boarding":"available"},"type":"Feature"},{"geometry":{"coordinates":[-0.619957,44.826605],"type":"Point"},"properties":{"code":"PEYCA","description":"","id":"5230","name":"Peychotte","parent_station":"PEYCHO","wheelchair_boarding":"available"},"type":"Feature"},{"geometry":{"coordinates":[-0.574202,44.87399],"type":"Point"},"properties":{"code":"AUBI1C","description":"","id":"5414","name":"Les Aubiers","parent_station":"AUBI1C","wheelchair_boarding":"available"},"type":"Feature"},{"geometry":{"coordinates":[-0.574469,44.854704],"type":"Point"},"properties":{"code":"GODAA","description":"","id":"5398","name":"Camille Godard","parent_station":"GODAR","wheelchair_boarding":"available"},"type":"Feature"},{"geometry":{"coordinates":[-0.547329,44.870941],"type":"Point"},"properties":{"code":"NYORKA","description":"","id":"5530","name":"New York","parent_station":"NYORK","wheelchair_boarding":"available"},"type":"Feature"},{"geometry":{"coordinates":[-0.57046,44.883114],"type":"Point"},"properties":{"code":"40JOUA","description":"","id":"7323","name":"Quarante Journaux","parent_station":"40JOU","wheelchair_boarding":"available"},"type":"Feature"},{"geometry":{"coordinates":[-0.570773,44.879067],"type":"Point"},"properties":{"code":"BERLAA","description":"","id":"7131","name":"Berges du Lac","parent_station":"BERLAC","wheelchair_boarding":"available"},"type":"Feature"},{"geometry":{"coordinates":[-0.53773,44.853782],"type":"Point"},"properties":{"code":"JAURR","description":"","id":"3703","name":"Jean Jaurès","parent_station":"JAURE","wheelchair_boarding":"available"},"type":"Feature"},{"geometry":{"coordinates":[-0.550475,44.819911],"type":"Point"},"properties":{"code":"VERNE3","description":"","id":"7351","name":"Carle Vernet","parent_station":"VERNT","wheelchair_boarding":"available"},"type":"Feature"},{"geometry":{"coordinates":[-0.551286,44.811116],"type":"Point"},"properties":{"code":"BROSER","description":"","id":"7391","name":"La Belle Rose","parent_station":"BROSE","wheelchair_boarding":"available"},"type":"Feature"},{"geometry":{"coordinates":[-0.566228,44.786628],"type":"Point"},"properties":{"code":"HAVEL","description":"","id":"7402","name":"Lycée Vaclav Havel","parent_station":"HAVEL","wheelchair_boarding":"available"},"type":"Feature"},{"geometry":{"coordinates":[-0.585691,44.816948],"type":"Point"},"properties":{"code":"ROUSR","description":"","id":"3746","name":"Roustaing","parent_station":"ROUST","wheelchair_boarding":"available"},"type":"Feature"},{"geometry":{"coordinates":[-0.628416,44.873835],"type":"Point"},"properties":{"code":"THIPPO","description":"","id":"8347","name":"Hippodrome","parent_station":"THIPPO","wheelchair_boarding":"available"},"type":"Feature"},{"geometry":{"coordinates":[-0.519308,44.87602],"type":"Point"},"properties":{"code":"BFLEU","description":"","id":"BFLEU","name":"Bois Fleuri","wheelchair_boarding":"unknown"},"type":"Feature"},{"geometry":{"coordinates":[-0.609614,44.800274],"type":"Point"},"properties":{"code":"DOYEA","description":"","id":"3733","name":"Doyen Brus","parent_station":"DOYEN","wheelchair_boarding":"available"},"type":"Feature"},{"geometry":{"coordinates":[-0.617433,44.796873],"type":"Point"},"properties":{"code":"MONTA","description":"","id":"7463","name":"Montaigne - Montesquieu","parent_station":"MONTA","wheelchair_boarding":"available"},"type":"Feature"},{"geometry":{"coordinates":[-0.605014,44.865297],"type":"Point"},"properties":{"code":"MBOUSR","description":"","id":"8331","name":"Mairie du Bouscat","parent_station":"MBOUS","wheelchair_boarding":"available"},"type":"Feature"},{"geometry":{"coordinates":[-0.519722,44.858676],"type":"Point"},"properties":{"code":"CPELL","description":"","id":"CPELL","name":"Pelletan","wheelchair_boarding":"unknown"},"type":"Feature"},{"geometry":{"coordinates":[-0.584282,44.838137],"type":"Point"},"properties":{"code":"MERIA","description":"","id":"MERIA","name":"Mériadeck","wheelchair_boarding":"unknown"},"type":"Feature"},{"geometry":{"coordinates":[-0.602316,44.805991],"type":"Point"},"properties":{"code":"ARTME","description":"","id":"ARTME","name":"Arts & Métiers","wheelchair_boarding":"unknown"},"type":"Feature"},{"geometry":{"coordinates":[-0.569667,44.841551],"type":"Point"},"properties":{"code":"BOURS","description":"","id":"BOURS","name":"Place de la Bourse","wheelchair_boarding":"unknown"},"type":"Feature"},{"geometry":{"coordinates":[-0.658325,44.844201],"type":"Point"},"properties":{"code":"UTRILA","description":"","id":"7331","name":"Hotel de Ville Mérignac","parent_station":"UTRILL","wheelchair_boarding":"available"},"type":"Feature"},{"geometry":{"coordinates":[-0.575341,44.848205],"type":"Point"},"properties":{"code":"JPUBL","description":"","id":"JPUBL","name":"Jardin Public","wheelchair_boarding":"unknown"},"type":"Feature"},{"geometry":{"coordinates":[-0.57433,44.874013],"type":"Point"},"properties":{"code":"AUBI2C","description":"","id":"AUBI2C","name":"Les Aubiers","wheelchair_boarding":"unknown"},"type":"Feature"},{"geometry":{"coordinates":[-0.570715,44.844496],"type":"Point"},"properties":{"code":"QFLEUV","description":"","id":"7346","name":"Quinconces Fleuve","parent_station":"QUIN_B","wheelchair_boarding":"available"},"type":"Feature"},{"geometry":{"coordinates":[-0.559655,44.793941],"type":"Point"},"properties":{"code":"PMUSSR","description":"","id":"7399","name":"Parc de Mussonville","parent_station":"PMUSS","wheelchair_boarding":"available"},"type":"Feature"},{"geometry":{"coordinates":[-0.570715,44.844496],"type":"Point"},"properties":{"code":"QUIN_B","description":"","id":"QUIN_B","name":"Quinconces","wheelchair_boarding":"unknown"},"type":"Feature"},{"geometry":{"coordinates":[-0.614433,44.871534],"type":"Point"},"properties":{"code":"GERMA","description":"","id":"GERMA","name":"Sainte Germaine","wheelchair_boarding":"unknown"},"type":"Feature"},{"geometry":{"coordinates":[-0.555387,44.842997],"type":"Point"},"properties":{"code":"JARDI","description":"","id":"JARDI","name":"Jardin Botanique","wheelchair_boarding":"unknown"},"type":"Feature"},{"geometry":{"coordinates":[-0.660114,44.888153],"type":"Point"},"properties":{"code":"SOURCA","description":"","id":"8356","name":"Les Sources","parent_station":"SOURCE","wheelchair_boarding":"available"},"type":"Feature"},{"geometry":{"coordinates":[-0.584243,44.838112],"type":"Point"},"properties":{"code":"MERIR","description":"","id":"3723","name":"Mériadeck","parent_station":"MERIA","wheelchair_boarding":"available"},"type":"Feature"},{"geometry":{"coordinates":[-0.573712,44.844012],"type":"Point"},"properties":{"code":"QU2C","description":"","id":"5404","name":"Quinconces","parent_station":"QUIN_B","wheelchair_boarding":"available"},"type":"Feature"},{"geometry":{"coordinates":[-0.649674,44.883783],"type":"Point"},"properties":{"code":"EYSINR","description":"","id":"8355","name":"Eysines Centre","parent_station":"EYSINE","wheelchair_boarding":"available"},"type":"Feature"},{"geometry":{"coordinates":[-0.55202,44.802892],"type":"Point"},"properties":{"code":"CALAIS","description":"","id":"CALAIS","name":"Calais - Centujean","wheelchair_boarding":"unknown"},"type":"Feature"},{"geometry":{"coordinates":[-0.663104,44.798618],"type":"Point"},"properties":{"code":"TALOU","description":"","id":"TALOU","name":"France Alouette","wheelchair_boarding":"unknown"},"type":"Feature"},{"geometry":{"coordinates":[-0.577188,44.83733],"type":"Point"},"properties":{"code":"HDVAA","description":"","id":"3718","name":"Hôtel de Ville","parent_station":"HDVA","wheelchair_boarding":"available"},"type":"Feature"},{"geometry":{"coordinates":[-0.590762,44.872208],"type":"Point"},"properties":{"code":"VACHE","description":"","id":"VACHE","name":"La Vache","wheelchair_boarding":"unknown"},"type":"Feature"},{"geometry":{"coordinates":[-0.517892,44.879106],"type":"Point"},"properties":{"code":"LAURI","description":"","id":"LAURI","name":"Lauriers","wheelchair_boarding":"unknown"},"type":"Feature"},{"geometry":{"coordinates":[-0.541535,44.885582],"type":"Point"},"properties":{"code":"GARON","description":"","id":"GARON","name":"Berges de la Garonne","wheelchair_boarding":"unknown"},"type":"Feature"},{"geometry":{"coordinates":[-0.667467,44.89202],"type":"Point"},"properties":{"code":"TCANT","description":"","id":"8358","name":"Cantinolle","parent_station":"TERCAN","wheelchair_boarding":"available"},"type":"Feature"},{"geometry":{"coordinates":[-0.537857,44.853787],"type":"Point"},"properties":{"code":"JAURA","description":"","id":"3702","name":"Jean Jaurès","parent_station":"JAURE","wheelchair_boarding":"available"},"type":"Feature"},{"geometry":{"coordinates":[-0.553247,44.86073],"type":"Point"},"properties":{"code":"FLO2B","description":"","id":"5260","name":"La Cité du Vin","parent_station":"FLO12B","wheelchair_boarding":"available"},"type":"Feature"},{"geometry":{"coordinates":[-0.57491,44.858651],"type":"Point"},"properties":{"code":"ECOUN","description":"","id":"ECOUN","name":"Emile Counord","wheelchair_boarding":"unknown"},"type":"Feature"},{"geometry":{"coordinates":[-0.65994,44.888014],"type":"Point"},"properties":{"code":"SOURCE","description":"","id":"SOURCE","name":"Les Sources","wheelchair_boarding":"unknown"},"type":"Feature"},{"geometry":{"coordinates":[-0.668319,44.858517],"type":"Point"},"properties":{"code":"TMAGUD","description":"","id":"TMAGUD","name":"Le Haillan Rostand","wheelchair_boarding":"unknown"},"type":"Feature"},{"geometry":{"coordinates":[-0.649859,44.883898],"type":"Point"},"properties":{"code":"EYSINE","description":"","id":"EYSINE","name":"Eysines Centre","wheelchair_boarding":"unknown"},"type":"Feature"},{"geometry":{"coordinates":[-0.551544,44.807985],"type":"Point"},"properties":{"code":"MUSARD","description":"","id":"MUSARD","name":"Stade Musard","wheelchair_boarding":"unknown"},"type":"Feature"},{"geometry":{"coordinates":[-0.644903,44.832602],"type":"Point"},"properties":{"code":"4CHEM","description":"","id":"4CHEM","name":"Quatre Chemins","wheelchair_boarding":"unknown"},"type":"Feature"},{"geometry":{"coordinates":[-0.556807,44.825918],"type":"Point"},"properties":{"code":"SJEAN","description":"","id":"3765","name":"Gare Saint-Jean","parent_station":"SJEAN","wheelchair_boarding":"available"},"type":"Feature"},{"geometry":{"coordinates":[-0.593057,44.853527],"type":"Point"},"properties":{"code":"BMEDOC","description":"","id":"BMEDOC","name":"Barrière du médoc","wheelchair_boarding":"unknown"},"type":"Feature"},{"geometry":{"coordinates":[-0.531581,44.857754],"type":"Point"},"properties":{"code":"CARNA","description":"","id":"3698","name":"Carnot - Mairie de Cenon","parent_station":"CARNO","wheelchair_boarding":"available"},"type":"Feature"},{"geometry":{"coordinates":[-0.5664,44.837191],"type":"Point"},"properties":{"code":"BRGCA","description":"","id":"3772","name":"Porte de Bourgogne","parent_station":"BRGC","wheelchair_boarding":"available"},"type":"Feature"},{"geometry":{"coordinates":[-0.566263,44.786573],"type":"Point"},"properties":{"code":"HAVELR","description":"","id":"7401","name":"Lycée Vaclav Havel","parent_station":"HAVEL","wheelchair_boarding":"unknown"},"type":"Feature"},{"geometry":{"coordinates":[-0.61418,44.827163],"type":"Point"},"properties":{"code":"FMITR","description":"","id":"5229","name":"François Mitterrand","parent_station":"FRMIT","wheelchair_boarding":"available"},"type":"Feature"},{"geometry":{"coordinates":[-0.610283,44.828804],"type":"Point"},"properties":{"code":"AUG1A","description":"","id":"4589","name":"Saint-Augustin","parent_station":"AUGUS","wheelchair_boarding":"available"},"type":"Feature"},{"geometry":{"coordinates":[-0.621512,44.876251],"type":"Point"},"properties":{"code":"TREULR","description":"","id":"8345","name":"Champ de Courses - Treulon","parent_station":"TREULO","wheelchair_boarding":"available"},"type":"Feature"},{"geometry":{"coordinates":[-0.556947,44.897707],"type":"Point"},"properties":{"code":"DEPJAL","description":"","id":"DEPJAL","name":"Dépôt Tramway de la Jallère","wheelchair_boarding":"unknown"},"type":"Feature"},{"geometry":{"coordinates":[-0.524869,44.864059],"type":"Point"},"properties":{"code":"BUTTI","description":"","id":"BUTTI","name":"Buttinière","wheelchair_boarding":"unknown"},"type":"Feature"},{"geometry":{"coordinates":[-0.585665,44.816945],"type":"Point"},"properties":{"code":"ROUST","description":"","id":"ROUST","name":"Roustaing","wheelchair_boarding":"unknown"},"type":"Feature"},{"geometry":{"coordinates":[-0.510414,44.845898],"type":"Point"},"properties":{"code":"DRAVE","description":"","id":"DRAVE","name":"Floirac Dravemont","wheelchair_boarding":"unknown"},"type":"Feature"},{"geometry":{"coordinates":[-0.651373,44.844259],"type":"Point"},"properties":{"code":"GALAN1","description":"","id":"7329","name":"Pin Galant","parent_station":"PGALA","wheelchair_boarding":"available"},"type":"Feature"},{"geometry":{"coordinates":[-0.580078,44.846601],"type":"Point"},"properties":{"code":"FONDAU","description":"","id":"FONDAU","name":"Fondaudège - Muséum","wheelchair_boarding":"unknown"},"type":"Feature"},{"geometry":{"coordinates":[-0.53432,44.855972],"type":"Point"},"properties":{"code":"CENOG1","description":"","id":"5130","name":"Cenon Gare","parent_station":"CENOG","wheelchair_boarding":"available"},"type":"Feature"},{"geometry":{"coordinates":[-0.524869,44.864059],"type":"Point"},"properties":{"code":"BUTTR","description":"","id":"3692","name":"Buttinière","parent_station":"BUTTI","wheelchair_boarding":"available"},"type":"Feature"},{"geometry":{"coordinates":[-0.636544,44.879554],"type":"Point"},"properties":{"code":"SVEILR","description":"","id":"8351","name":"Simone Veil","parent_station":"SVEIL","wheelchair_boarding":"available"},"type":"Feature"},{"geometry":{"coordinates":[-0.593217,44.853648],"type":"Point"},"properties":{"code":"BMEDOA","description":"","id":"8326","name":"Barrière du Médoc","parent_station":"BMEDOC","wheelchair_boarding":"available"},"type":"Feature"},{"geometry":{"coordinates":[-0.63476,44.800353],"type":"Point"},"properties":{"code":"MONTER","description":"","id":"5246","name":"Camponac Médiathèque","parent_station":"MONTES","wheelchair_boarding":"available"},"type":"Feature"},{"geometry":{"coordinates":[-0.569302,44.837913],"type":"Point"},"properties":{"code":"PALAI","description":"","id":"PALAI","name":"Place du Palais","wheelchair_boarding":"unknown"},"type":"Feature"},{"geometry":{"coordinates":[-0.658219,44.844141],"type":"Point"},"properties":{"code":"UTRILR","description":"","id":"7332","name":"Hotel de Ville Mérignac","parent_station":"UTRILL","wheelchair_boarding":"available"},"type":"Feature"},{"geometry":{"coordinates":[-0.558553,44.829088],"type":"Point"},"properties":{"code":"TAUZA","description":"","id":"3766","name":"Tauzia","parent_station":"TAUZI","wheelchair_boarding":"available"},"type":"Feature"},{"geometry":{"coordinates":[-0.517313,44.887668],"type":"Point"},"properties":{"code":"LGARDE","description":"","id":"7091","name":"La Gardette - Bassens - Carbon-Blanc","parent_station":"LGARDE","wheelchair_boarding":"available"},"type":"Feature"},{"geometry":{"coordinates":[-0.625581,44.82662],"type":"Point"},"properties":{"code":"ARLAR","description":"","id":"5233","name":"Fontaine d'Arlac","parent_station":"ARLAC","wheelchair_boarding":"available"},"type":"Feature"},{"geometry":{"coordinates":[-0.575835,44.867097],"type":"Point"},"properties":{"code":"RAVESI","description":"","id":"RAVESI","name":"Place Ravezies","wheelchair_boarding":"unknown"},"type":"Feature"},{"geometry":{"coordinates":[-0.531493,44.857765],"type":"Point"},"properties":{"code":"CARNR","description":"","id":"3699","name":"Carnot - Mairie de Cenon","parent_station":"CARNO","wheelchair_boarding":"available"},"type":"Feature"},{"geometry":{"coordinates":[-0.564905,44.774341],"type":"Point"},"properties":{"code":"LPYREN","description":"","id":"LPYREN","name":"Villenave Pyrénées","wheelchair_boarding":"unknown"},"type":"Feature"},{"geometry":{"coordinates":[-0.547256,44.867591],"type":"Point"},"properties":{"code":"DEPAC","description":"","id":"DEPAC","name":"Dépôt Tramway Bacalan","wheelchair_boarding":"unknown"},"type":"Feature"},{"geometry":{"coordinates":[-0.633958,44.83023],"type":"Point"},"properties":{"code":"VIGNY","description":"","id":"VIGNY","name":"Alfred de Vigny","wheelchair_boarding":"unknown"},"type":"Feature"},{"geometry":{"coordinates":[-0.609766,44.88735],"type":"Point"},"properties":{"code":"BRUGAR","description":"","id":"7716","name":"Gare de Bruges","parent_station":"BRUGAR","wheelchair_boarding":"available"},"type":"Feature"},{"geometry":{"coordinates":[-0.574887,44.858674],"type":"Point"},"properties":{"code":"ECOUA","description":"","id":"5400","name":"Emile Counord","parent_station":"ECOUN","wheelchair_boarding":"available"},"type":"Feature"},{"geometry":{"coordinates":[-0.513235,44.854136],"type":"Point"},"properties":{"code":"JZAYA","description":"","id":"5214","name":"Jean Zay","parent_station":"JZAY","wheelchair_boarding":"available"},"type":"Feature"},{"geometry":{"coordinates":[-0.523542,44.879864],"type":"Point"},"properties":{"code":"HVILR","description":"","id":"5441","name":"Mairie de Lormont","parent_station":"HVILL","wheelchair_boarding":"available"},"type":"Feature"}],"type":"FeatureCollection"}